[
  {
    "name_en": "Andorra",
    "flag_url_32": "https://www.thesportsdb.com/images/icons/flags/shiny/32/Andorra.png",
    "lat": 42.506285,
    "lng": 1.521801,
    "timezone": "Europe/Andorra"
  },
  {
    "name_en": "United Arab Emirates",
    "flag_url_32": "https://www.thesportsdb.com/images/icons/flags/shiny/32/United-Arab-Emirates.png",
    "lat": 23.424076,
    "lng": 53.847818,
    "timezone": "Asia/Dubai"
  },
  {
    "name_en": "Afghanistan",
    "flag_url_32": "https://www.thesportsdb.com/images/icons/flags/shiny/32/Afghanistan.png",
    "lat": 33.93911,
    "lng": 67.709953,
    "timezone": "Asia/Kabul"
  },
  {
    "name_en": "Antigua and Barbuda",
    "flag_url_32": "https://www.thesportsdb.com/images/icons/flags/shiny/32/Antigua-and-Barbuda.png",
    "lat": 17.060816,
    "lng": -61.796428,
    "timezone": "America/Antigua"
  },
  {
    "name_en": "Anguilla",
    "flag_url_32": "https://www.thesportsdb.com/images/icons/flags/shiny/32/Anguilla.png",
    "lat": 18.220554,
    "lng": -63.068614999999994,
    "timezone": "America/Anguilla"
  },
  {
    "name_en": "Albania",
    "flag_url_32": "https://www.thesportsdb.com/images/icons/flags/shiny/32/Albania.png",
    "lat": 41.153332,
    "lng": 20.168331,
    "timezone": "Europe/Tirane"
  },
  {
    "name_en": "Armenia",
    "flag_url_32": "https://www.thesportsdb.com/images/icons/flags/shiny/32/Armenia.png",
    "lat": 40.069099,
    "lng": 45.038188999999996,
    "timezone": "Asia/Yerevan"
  },
  {
    "name_en": "Angola",
    "flag_url_32": "https://www.thesportsdb.com/images/icons/flags/shiny/32/Angola.png",
    "lat": -11.202691999999999,
    "lng": 17.873887,
    "timezone": "Africa/Luanda"
  },
  {
    "name_en": "Antarctica",
    "flag_url_32": "https://www.thesportsdb.com/images/icons/flags/shiny/32/Antarctica.png",
    "lat": -82.862752,
    "lng": 135,
    "timezone": "Pacific/Auckland"
  },
  {
    "name_en": "Argentina",
    "flag_url_32": "https://www.thesportsdb.com/images/icons/flags/shiny/32/Argentina.png",
    "lat": -38.416097,
    "lng": -63.616671999999994,
    "timezone": "America/Argentina/La_Rioja"
  },
  {
    "name_en": "American Samoa",
    "flag_url_32": "https://www.thesportsdb.com/images/icons/flags/shiny/32/American-Samoa.png",
    "lat": -14.270971999999999,
    "lng": -170.132217,
    "timezone": "Pacific/Pago_Pago"
  },
  {
    "name_en": "Austria",
    "flag_url_32": "https://www.thesportsdb.com/images/icons/flags/shiny/32/Austria.png",
    "lat": 47.516231,
    "lng": 14.550072,
    "timezone": "Europe/Vienna"
  },
  {
    "name_en": "Australia",
    "flag_url_32": "https://www.thesportsdb.com/images/icons/flags/shiny/32/Australia.png",
    "lat": -25.274397999999998,
    "lng": 133.775136,
    "timezone": "Australia/Adelaide"
  },
  {
    "name_en": "Aruba",
    "flag_url_32": "https://www.thesportsdb.com/images/icons/flags/shiny/32/Aruba.png",
    "lat": 12.52111,
    "lng": -69.968338,
    "timezone": "America/Aruba"
  },
  {
    "name_en": "Aland",
    "flag_url_32": "https://www.thesportsdb.com/images/icons/flags/shiny/32/Aland.png",
    "lat": 40.7177247,
    "lng": -73.9621614,
    "timezone": "America/New_York"
  },
  {
    "name_en": "Azerbaijan",
    "flag_url_32": "https://www.thesportsdb.com/images/icons/flags/shiny/32/Azerbaijan.png",
    "lat": 40.143105,
    "lng": 47.576927,
    "timezone": "Asia/Baku"
  },
  {
    "name_en": "Bosnia and Herzegovina",
    "flag_url_32": "https://www.thesportsdb.com/images/icons/flags/shiny/32/Bosnia-and-Herzegovina.png",
    "lat": 43.915886,
    "lng": 17.679076,
    "timezone": "Europe/Sarajevo"
  },
  {
    "name_en": "Barbados",
    "flag_url_32": "https://www.thesportsdb.com/images/icons/flags/shiny/32/Barbados.png",
    "lat": 13.193887,
    "lng": -59.543198,
    "timezone": "America/Barbados"
  },
  {
    "name_en": "Bangladesh",
    "flag_url_32": "https://www.thesportsdb.com/images/icons/flags/shiny/32/Bangladesh.png",
    "lat": 23.684994,
    "lng": 90.356331,
    "timezone": "Asia/Dhaka"
  },
  {
    "name_en": "Belgium",
    "flag_url_32": "https://www.thesportsdb.com/images/icons/flags/shiny/32/Belgium.png",
    "lat": 50.503887,
    "lng": 4.469936,
    "timezone": "Europe/Brussels"
  },
  {
    "name_en": "Burkina Faso",
    "flag_url_32": "https://www.thesportsdb.com/images/icons/flags/shiny/32/Burkina-Faso.png",
    "lat": 12.238332999999999,
    "lng": -1.561593,
    "timezone": "Africa/Ouagadougou"
  },
  {
    "name_en": "Bulgaria",
    "flag_url_32": "https://www.thesportsdb.com/images/icons/flags/shiny/32/Bulgaria.png",
    "lat": 42.733883,
    "lng": 25.48583,
    "timezone": "Europe/Sofia"
  },
  {
    "name_en": "Bahrain",
    "flag_url_32": "https://www.thesportsdb.com/images/icons/flags/shiny/32/Bahrain.png",
    "lat": 26.066699999999997,
    "lng": 50.5577,
    "timezone": "Asia/Bahrain"
  },
  {
    "name_en": "Burundi",
    "flag_url_32": "https://www.thesportsdb.com/images/icons/flags/shiny/32/Burundi.png",
    "lat": -3.373056,
    "lng": 29.918885999999997,
    "timezone": "Africa/Bujumbura"
  },
  {
    "name_en": "Benin",
    "flag_url_32": "https://www.thesportsdb.com/images/icons/flags/shiny/32/Benin.png",
    "lat": 9.30769,
    "lng": 2.3158339999999997,
    "timezone": "Africa/Porto-Novo"
  },
  {
    "name_en": "Saint Barthelemy",
    "flag_url_32": "https://www.thesportsdb.com/images/icons/flags/shiny/32/Saint-Barthelemy.png",
    "lat": 17.9,
    "lng": -62.833332999999996,
    "timezone": "America/St_Barthelemy"
  },
  {
    "name_en": "Bermuda",
    "flag_url_32": "https://www.thesportsdb.com/images/icons/flags/shiny/32/Bermuda.png",
    "lat": 32.3078,
    "lng": -64.7505,
    "timezone": "Atlantic/Bermuda"
  },
  {
    "name_en": "Brunei",
    "flag_url_32": "https://www.thesportsdb.com/images/icons/flags/shiny/32/Brunei.png",
    "lat": 4.535277,
    "lng": 114.72766899999999,
    "timezone": "Asia/Brunei"
  },
  {
    "name_en": "Bolivia",
    "flag_url_32": "https://www.thesportsdb.com/images/icons/flags/shiny/32/Bolivia.png",
    "lat": -16.290153999999998,
    "lng": -63.588652999999994,
    "timezone": "America/La_Paz"
  },
  {
    "name_en": "Bonaire",
    "flag_url_32": "https://www.thesportsdb.com/images/icons/flags/shiny/32/Bonaire.png",
    "lat": 12.2018902,
    "lng": -68.26238219999999,
    "timezone": "America/Curacao"
  },
  {
    "name_en": "Brazil",
    "flag_url_32": "https://www.thesportsdb.com/images/icons/flags/shiny/32/Brazil.png",
    "lat": -14.235004,
    "lng": -51.92528,
    "timezone": "America/Bahia"
  },
  {
    "name_en": "Bahamas",
    "flag_url_32": "https://www.thesportsdb.com/images/icons/flags/shiny/32/Bahamas.png",
    "lat": 25.03428,
    "lng": -77.39627999999999,
    "timezone": "America/Nassau"
  },
  {
    "name_en": "Bhutan",
    "flag_url_32": "https://www.thesportsdb.com/images/icons/flags/shiny/32/Bhutan.png",
    "lat": 27.514162,
    "lng": 90.433601,
    "timezone": "Asia/Thimphu"
  },
  {
    "name_en": "Bouvet Island",
    "flag_url_32": "https://www.thesportsdb.com/images/icons/flags/shiny/32/Bouvet-Island.png",
    "lat": -54.4207915,
    "lng": 3.3464497,
    "timezone": null
  },
  {
    "name_en": "Botswana",
    "flag_url_32": "https://www.thesportsdb.com/images/icons/flags/shiny/32/Botswana.png",
    "lat": -22.328474,
    "lng": 24.684866,
    "timezone": "Africa/Gaborone"
  },
  {
    "name_en": "Belarus",
    "flag_url_32": "https://www.thesportsdb.com/images/icons/flags/shiny/32/Belarus.png",
    "lat": 53.709807,
    "lng": 27.953388999999998,
    "timezone": "Europe/Minsk"
  },
  {
    "name_en": "Belize",
    "flag_url_32": "https://www.thesportsdb.com/images/icons/flags/shiny/32/Belize.png",
    "lat": 17.189877,
    "lng": -88.49765,
    "timezone": "America/Belize"
  },
  {
    "name_en": "Canada",
    "flag_url_32": "https://www.thesportsdb.com/images/icons/flags/shiny/32/Canada.png",
    "lat": 56.130365999999995,
    "lng": -106.34677099999999,
    "timezone": "America/Blanc-Sablon"
  },
  {
    "name_en": "Cocos Keeling Islands",
    "flag_url_32": "https://www.thesportsdb.com/images/icons/flags/shiny/32/Cocos-Keeling-Islands.png",
    "lat": -12.164164999999999,
    "lng": 96.87095599999999,
    "timezone": "Indian/Cocos"
  },
  {
    "name_en": "DR Congo",
    "flag_url_32": "https://www.thesportsdb.com/images/icons/flags/shiny/32/DR-Congo.png",
    "lat": -4.038333,
    "lng": 21.758664,
    "timezone": "Africa/Kinshasa"
  },
  {
    "name_en": "Central African Republic",
    "flag_url_32": "https://www.thesportsdb.com/images/icons/flags/shiny/32/Central-African-Republic.png",
    "lat": 6.611110999999999,
    "lng": 20.939443999999998,
    "timezone": "Africa/Bangui"
  },
  {
    "name_en": "Congo",
    "flag_url_32": "https://www.thesportsdb.com/images/icons/flags/shiny/32/Congo.png",
    "lat": -4.038333,
    "lng": 21.758664,
    "timezone": "Africa/Kinshasa"
  },
  {
    "name_en": "Switzerland",
    "flag_url_32": "https://www.thesportsdb.com/images/icons/flags/shiny/32/Switzerland.png",
    "lat": 46.818188,
    "lng": 8.227511999999999,
    "timezone": "Europe/Zurich"
  },
  {
    "name_en": "Ivory Coast",
    "flag_url_32": "https://www.thesportsdb.com/images/icons/flags/shiny/32/Ivory-Coast.png",
    "lat": 7.539988999999999,
    "lng": -5.547079999999999,
    "timezone": "Africa/Abidjan"
  },
  {
    "name_en": "Cook Islands",
    "flag_url_32": "https://www.thesportsdb.com/images/icons/flags/shiny/32/Cook-Islands.png",
    "lat": -21.236736,
    "lng": -159.777671,
    "timezone": "Pacific/Rarotonga"
  },
  {
    "name_en": "Chile",
    "flag_url_32": "https://www.thesportsdb.com/images/icons/flags/shiny/32/Chile.png",
    "lat": -35.675146999999996,
    "lng": -71.542969,
    "timezone": "America/Punta_Arenas"
  },
  {
    "name_en": "Cameroon",
    "flag_url_32": "https://www.thesportsdb.com/images/icons/flags/shiny/32/Cameroon.png",
    "lat": 7.369721999999999,
    "lng": 12.354721999999999,
    "timezone": "Africa/Douala"
  },
  {
    "name_en": "China",
    "flag_url_32": "https://www.thesportsdb.com/images/icons/flags/shiny/32/China.png",
    "lat": 35.86166,
    "lng": 104.195397,
    "timezone": "Asia/Shanghai"
  },
  {
    "name_en": "Colombia",
    "flag_url_32": "https://www.thesportsdb.com/images/icons/flags/shiny/32/Colombia.png",
    "lat": 4.570868,
    "lng": -74.297333,
    "timezone": "America/Bogota"
  },
  {
    "name_en": "Costa Rica",
    "flag_url_32": "https://www.thesportsdb.com/images/icons/flags/shiny/32/Costa-Rica.png",
    "lat": 9.748916999999999,
    "lng": -83.753428,
    "timezone": "America/Costa_Rica"
  },
  {
    "name_en": "Cuba",
    "flag_url_32": "https://www.thesportsdb.com/images/icons/flags/shiny/32/Cuba.png",
    "lat": 21.521756999999997,
    "lng": -77.781167,
    "timezone": "America/Havana"
  },
  {
    "name_en": "Cape Verde",
    "flag_url_32": "https://www.thesportsdb.com/images/icons/flags/shiny/32/Cape-Verde.png",
    "lat": 16.5388,
    "lng": -23.0418,
    "timezone": "Atlantic/Cape_Verde"
  },
  {
    "name_en": "Curacao",
    "flag_url_32": "https://www.thesportsdb.com/images/icons/flags/shiny/32/Curacao.png",
    "lat": 12.16957,
    "lng": -68.99002,
    "timezone": "America/Curacao"
  },
  {
    "name_en": "Christmas Island",
    "flag_url_32": "https://www.thesportsdb.com/images/icons/flags/shiny/32/Christmas-Island.png",
    "lat": -10.447524999999999,
    "lng": 105.690449,
    "timezone": "Indian/Christmas"
  },
  {
    "name_en": "Cyprus",
    "flag_url_32": "https://www.thesportsdb.com/images/icons/flags/shiny/32/Cyprus.png",
    "lat": 35.126413,
    "lng": 33.429859,
    "timezone": "Asia/Nicosia"
  },
  {
    "name_en": "Czechia",
    "flag_url_32": "https://www.thesportsdb.com/images/icons/flags/shiny/32/Czechia.png",
    "lat": 49.817491999999994,
    "lng": 15.472961999999999,
    "timezone": "Europe/Prague"
  },
  {
    "name_en": "Germany",
    "flag_url_32": "https://www.thesportsdb.com/images/icons/flags/shiny/32/Germany.png",
    "lat": 51.165690999999995,
    "lng": 10.451526,
    "timezone": "Europe/Berlin"
  },
  {
    "name_en": "Djibouti",
    "flag_url_32": "https://www.thesportsdb.com/images/icons/flags/shiny/32/Djibouti.png",
    "lat": 11.825137999999999,
    "lng": 42.590275,
    "timezone": "Africa/Djibouti"
  },
  {
    "name_en": "Denmark",
    "flag_url_32": "https://www.thesportsdb.com/images/icons/flags/shiny/32/Denmark.png",
    "lat": 56.26392,
    "lng": 9.501785,
    "timezone": "Europe/Copenhagen"
  },
  {
    "name_en": "Dominica",
    "flag_url_32": "https://www.thesportsdb.com/images/icons/flags/shiny/32/Dominica.png",
    "lat": 15.414999,
    "lng": -61.370976,
    "timezone": "America/Dominica"
  },
  {
    "name_en": "Dominican Republic",
    "flag_url_32": "https://www.thesportsdb.com/images/icons/flags/shiny/32/Dominican-Republic.png",
    "lat": 18.735692999999998,
    "lng": -70.162651,
    "timezone": "America/Santo_Domingo"
  },
  {
    "name_en": "Algeria",
    "flag_url_32": "https://www.thesportsdb.com/images/icons/flags/shiny/32/Algeria.png",
    "lat": 28.033886,
    "lng": 1.6596259999999998,
    "timezone": "Africa/Algiers"
  },
  {
    "name_en": "Ecuador",
    "flag_url_32": "https://www.thesportsdb.com/images/icons/flags/shiny/32/Ecuador.png",
    "lat": -1.8312389999999998,
    "lng": -78.18340599999999,
    "timezone": "America/Guayaquil"
  },
  {
    "name_en": "Estonia",
    "flag_url_32": "https://www.thesportsdb.com/images/icons/flags/shiny/32/Estonia.png",
    "lat": 58.595271999999994,
    "lng": 25.013607099999998,
    "timezone": "Europe/Tallinn"
  },
  {
    "name_en": "Egypt",
    "flag_url_32": "https://www.thesportsdb.com/images/icons/flags/shiny/32/Egypt.png",
    "lat": 26.820553,
    "lng": 30.802498,
    "timezone": "Africa/Cairo"
  },
  {
    "name_en": "Western Sahara",
    "flag_url_32": "https://www.thesportsdb.com/images/icons/flags/shiny/32/Western-Sahara.png",
    "lat": 24.215526999999998,
    "lng": -12.885834,
    "timezone": "Africa/El_Aaiun"
  },
  {
    "name_en": "England",
    "flag_url_32": "https://www.thesportsdb.com/images/icons/flags/shiny/32/England.png",
    "lat": 52.3555177,
    "lng": -1.1743196999999999,
    "timezone": "Europe/London"
  },
  {
    "name_en": "Eritrea",
    "flag_url_32": "https://www.thesportsdb.com/images/icons/flags/shiny/32/Eritrea.png",
    "lat": 15.179383999999999,
    "lng": 39.782334,
    "timezone": "Africa/Asmera"
  },
  {
    "name_en": "Spain",
    "flag_url_32": "https://www.thesportsdb.com/images/icons/flags/shiny/32/Spain.png",
    "lat": 40.463667,
    "lng": -3.7492199999999998,
    "timezone": "Atlantic/Canary"
  },
  {
    "name_en": "Ethiopia",
    "flag_url_32": "https://www.thesportsdb.com/images/icons/flags/shiny/32/Ethiopia.png",
    "lat": 9.145,
    "lng": 40.489672999999996,
    "timezone": "Africa/Addis_Ababa"
  },
  {
    "name_en": "Europe",
    "flag_url_32": "https://www.thesportsdb.com/images/icons/flags/shiny/32/Europe.png",
    "lat": 54.5259614,
    "lng": 15.255118699999999,
    "timezone": "Arctic/Longyearbyen"
  },
  {
    "name_en": "Finland",
    "flag_url_32": "https://www.thesportsdb.com/images/icons/flags/shiny/32/Finland.png",
    "lat": 61.92411,
    "lng": 25.748151099999998,
    "timezone": "Europe/Helsinki"
  },
  {
    "name_en": "Fiji",
    "flag_url_32": "https://www.thesportsdb.com/images/icons/flags/shiny/32/Fiji.png",
    "lat": -17.713371,
    "lng": 178.065032,
    "timezone": "Pacific/Fiji"
  },
  {
    "name_en": "Falkland Islands",
    "flag_url_32": "https://www.thesportsdb.com/images/icons/flags/shiny/32/Falkland-Islands.png",
    "lat": -51.796253,
    "lng": -59.523613,
    "timezone": "Atlantic/Stanley"
  },
  {
    "name_en": "Micronesia",
    "flag_url_32": "https://www.thesportsdb.com/images/icons/flags/shiny/32/Micronesia.png",
    "lat": 7.425554,
    "lng": 150.55081199999998,
    "timezone": "Pacific/Kosrae"
  },
  {
    "name_en": "Faroe Islands",
    "flag_url_32": "https://www.thesportsdb.com/images/icons/flags/shiny/32/Faroe-Islands.png",
    "lat": 61.892635,
    "lng": -6.9118061,
    "timezone": "Atlantic/Faeroe"
  },
  {
    "name_en": "France",
    "flag_url_32": "https://www.thesportsdb.com/images/icons/flags/shiny/32/France.png",
    "lat": 46.227638,
    "lng": 2.213749,
    "timezone": "Europe/Paris"
  },
  {
    "name_en": "Gabon",
    "flag_url_32": "https://www.thesportsdb.com/images/icons/flags/shiny/32/Gabon.png",
    "lat": -0.803689,
    "lng": 11.609444,
    "timezone": "Africa/Libreville"
  },
  {
    "name_en": "United Kingdom",
    "flag_url_32": "https://www.thesportsdb.com/images/icons/flags/shiny/32/United-Kingdom.png",
    "lat": 55.378051,
    "lng": -3.4359729999999997,
    "timezone": "Europe/London"
  },
  {
    "name_en": "Grenada",
    "flag_url_32": "https://www.thesportsdb.com/images/icons/flags/shiny/32/Grenada.png",
    "lat": 12.1165,
    "lng": -61.678999999999995,
    "timezone": "America/Grenada"
  },
  {
    "name_en": "Georgia",
    "flag_url_32": "https://www.thesportsdb.com/images/icons/flags/shiny/32/Georgia.png",
    "lat": 32.1574351,
    "lng": -82.907123,
    "timezone": "America/New_York"
  },
  {
    "name_en": "French Guiana",
    "flag_url_32": "https://www.thesportsdb.com/images/icons/flags/shiny/32/French-Guiana.png",
    "lat": 3.9338889999999997,
    "lng": -53.125782,
    "timezone": "America/Cayenne"
  },
  {
    "name_en": "Guernsey",
    "flag_url_32": "https://www.thesportsdb.com/images/icons/flags/shiny/32/Guernsey.png",
    "lat": 49.4481982,
    "lng": -2.58949,
    "timezone": "Europe/Guernsey"
  },
  {
    "name_en": "Ghana",
    "flag_url_32": "https://www.thesportsdb.com/images/icons/flags/shiny/32/Ghana.png",
    "lat": 7.946527,
    "lng": -1.023194,
    "timezone": "Africa/Accra"
  },
  {
    "name_en": "Gibraltar",
    "flag_url_32": "https://www.thesportsdb.com/images/icons/flags/shiny/32/Gibraltar.png",
    "lat": 36.140751,
    "lng": -5.353585,
    "timezone": "Europe/Gibraltar"
  },
  {
    "name_en": "Greenland",
    "flag_url_32": "https://www.thesportsdb.com/images/icons/flags/shiny/32/Greenland.png",
    "lat": 71.706936,
    "lng": -42.604303,
    "timezone": "America/Danmarkshavn"
  },
  {
    "name_en": "Gambia",
    "flag_url_32": "https://www.thesportsdb.com/images/icons/flags/shiny/32/Gambia.png",
    "lat": 13.443182,
    "lng": -15.310139,
    "timezone": "Africa/Banjul"
  },
  {
    "name_en": "Guinea",
    "flag_url_32": "https://www.thesportsdb.com/images/icons/flags/shiny/32/Guinea.png",
    "lat": 9.945587,
    "lng": -9.696645,
    "timezone": "Africa/Conakry"
  },
  {
    "name_en": "Guadeloupe",
    "flag_url_32": "https://www.thesportsdb.com/images/icons/flags/shiny/32/Guadeloupe.png",
    "lat": 16.265,
    "lng": -61.550999999999995,
    "timezone": "America/Guadeloupe"
  },
  {
    "name_en": "Equatorial Guinea",
    "flag_url_32": "https://www.thesportsdb.com/images/icons/flags/shiny/32/Equatorial-Guinea.png",
    "lat": 1.650801,
    "lng": 10.267895,
    "timezone": "Africa/Malabo"
  },
  {
    "name_en": "Greece",
    "flag_url_32": "https://www.thesportsdb.com/images/icons/flags/shiny/32/Greece.png",
    "lat": 39.074208,
    "lng": 21.824312,
    "timezone": "Europe/Athens"
  },
  {
    "name_en": "South Georgia",
    "flag_url_32": "https://www.thesportsdb.com/images/icons/flags/shiny/32/South-Georgia.png",
    "lat": -54.4138333,
    "lng": -36.5827165,
    "timezone": "Atlantic/South_Georgia"
  },
  {
    "name_en": "Guatemala",
    "flag_url_32": "https://www.thesportsdb.com/images/icons/flags/shiny/32/Guatemala.png",
    "lat": 15.783470999999999,
    "lng": -90.23075899999999,
    "timezone": "America/Guatemala"
  },
  {
    "name_en": "Guam",
    "flag_url_32": "https://www.thesportsdb.com/images/icons/flags/shiny/32/Guam.png",
    "lat": 13.444303999999999,
    "lng": 144.79373099999998,
    "timezone": "Pacific/Guam"
  },
  {
    "name_en": "Guinea-Bissau",
    "flag_url_32": "https://www.thesportsdb.com/images/icons/flags/shiny/32/Guinea-Bissau.png",
    "lat": 11.803749,
    "lng": -15.180413,
    "timezone": "Africa/Bissau"
  },
  {
    "name_en": "Guyana",
    "flag_url_32": "https://www.thesportsdb.com/images/icons/flags/shiny/32/Guyana.png",
    "lat": 4.860416,
    "lng": -58.93018,
    "timezone": "America/Guyana"
  },
  {
    "name_en": "Hong Kong",
    "flag_url_32": "https://www.thesportsdb.com/images/icons/flags/shiny/32/Hong-Kong.png",
    "lat": 22.319303899999998,
    "lng": 114.16936109999999,
    "timezone": "Asia/Hong_Kong"
  },
  {
    "name_en": "Heard and McDonald Islands",
    "flag_url_32": "https://www.thesportsdb.com/images/icons/flags/shiny/32/Heard-and-McDonald-Islands.png",
    "lat": -53.08181,
    "lng": 73.50415799999999,
    "timezone": null
  },
  {
    "name_en": "Honduras",
    "flag_url_32": "https://www.thesportsdb.com/images/icons/flags/shiny/32/Honduras.png",
    "lat": 15.199999,
    "lng": -86.241905,
    "timezone": "America/Tegucigalpa"
  },
  {
    "name_en": "Croatia",
    "flag_url_32": "https://www.thesportsdb.com/images/icons/flags/shiny/32/Croatia.png",
    "lat": 45.1,
    "lng": 15.200000099999999,
    "timezone": "Europe/Zagreb"
  },
  {
    "name_en": "Haiti",
    "flag_url_32": "https://www.thesportsdb.com/images/icons/flags/shiny/32/Haiti.png",
    "lat": 18.971187,
    "lng": -72.285215,
    "timezone": "America/Port-au-Prince"
  },
  {
    "name_en": "Hungary",
    "flag_url_32": "https://www.thesportsdb.com/images/icons/flags/shiny/32/Hungary.png",
    "lat": 47.162493999999995,
    "lng": 19.503304099999998,
    "timezone": "Europe/Budapest"
  },
  {
    "name_en": "International",
    "flag_url_32": "https://www.thesportsdb.com/images/icons/flags/shiny/32/International.png",
    "lat": 33.9651596,
    "lng": -81.00595369999999,
    "timezone": "America/New_York"
  },
  {
    "name_en": "Indonesia",
    "flag_url_32": "https://www.thesportsdb.com/images/icons/flags/shiny/32/Indonesia.png",
    "lat": -0.789275,
    "lng": 113.92132699999999,
    "timezone": "Asia/Jakarta"
  },
  {
    "name_en": "Ireland",
    "flag_url_32": "https://www.thesportsdb.com/images/icons/flags/shiny/32/Ireland.png",
    "lat": 53.7797554,
    "lng": -7.3055309,
    "timezone": "Europe/Dublin"
  },
  {
    "name_en": "Israel",
    "flag_url_32": "https://www.thesportsdb.com/images/icons/flags/shiny/32/Israel.png",
    "lat": 31.046051,
    "lng": 34.851611999999996,
    "timezone": "Asia/Jerusalem"
  },
  {
    "name_en": "Isle of Man",
    "flag_url_32": "https://www.thesportsdb.com/images/icons/flags/shiny/32/Isle-of-Man.png",
    "lat": 54.236107,
    "lng": -4.548056,
    "timezone": "Europe/Isle_of_Man"
  },
  {
    "name_en": "India",
    "flag_url_32": "https://www.thesportsdb.com/images/icons/flags/shiny/32/India.png",
    "lat": 20.593684,
    "lng": 78.96288,
    "timezone": "Asia/Calcutta"
  },
  {
    "name_en": "British Indian Ocean Territory",
    "flag_url_32": "https://www.thesportsdb.com/images/icons/flags/shiny/32/British-Indian-Ocean-Territory.png",
    "lat": -6.3431939999999996,
    "lng": 71.876519,
    "timezone": "Indian/Chagos"
  },
  {
    "name_en": "Iraq",
    "flag_url_32": "https://www.thesportsdb.com/images/icons/flags/shiny/32/Iraq.png",
    "lat": 33.223191,
    "lng": 43.679291,
    "timezone": "Asia/Baghdad"
  },
  {
    "name_en": "Iran",
    "flag_url_32": "https://www.thesportsdb.com/images/icons/flags/shiny/32/Iran.png",
    "lat": 32.427907999999995,
    "lng": 53.688046,
    "timezone": "Asia/Tehran"
  },
  {
    "name_en": "Iceland",
    "flag_url_32": "https://www.thesportsdb.com/images/icons/flags/shiny/32/Iceland.png",
    "lat": 64.963051,
    "lng": -19.020834999999998,
    "timezone": "Atlantic/Reykjavik"
  },
  {
    "name_en": "Italy",
    "flag_url_32": "https://www.thesportsdb.com/images/icons/flags/shiny/32/Italy.png",
    "lat": 41.871939999999995,
    "lng": 12.56738,
    "timezone": "Europe/Rome"
  },
  {
    "name_en": "Jersey",
    "flag_url_32": "https://www.thesportsdb.com/images/icons/flags/shiny/32/Jersey.png",
    "lat": 49.213771099999995,
    "lng": -2.1357662,
    "timezone": "Europe/Jersey"
  },
  {
    "name_en": "Jamaica",
    "flag_url_32": "https://www.thesportsdb.com/images/icons/flags/shiny/32/Jamaica.png",
    "lat": 18.109581,
    "lng": -77.297508,
    "timezone": "America/Jamaica"
  },
  {
    "name_en": "Jordan",
    "flag_url_32": "https://www.thesportsdb.com/images/icons/flags/shiny/32/Jordan.png",
    "lat": 30.585164,
    "lng": 36.238414,
    "timezone": "Asia/Amman"
  },
  {
    "name_en": "Japan",
    "flag_url_32": "https://www.thesportsdb.com/images/icons/flags/shiny/32/Japan.png",
    "lat": 36.204823999999995,
    "lng": 138.252924,
    "timezone": "Asia/Tokyo"
  },
  {
    "name_en": "Kenya",
    "flag_url_32": "https://www.thesportsdb.com/images/icons/flags/shiny/32/Kenya.png",
    "lat": -0.023559,
    "lng": 37.906193,
    "timezone": "Africa/Nairobi"
  },
  {
    "name_en": "Kyrgyzstan",
    "flag_url_32": "https://www.thesportsdb.com/images/icons/flags/shiny/32/Kyrgyzstan.png",
    "lat": 41.20438,
    "lng": 74.766098,
    "timezone": "Asia/Bishkek"
  },
  {
    "name_en": "Cambodia",
    "flag_url_32": "https://www.thesportsdb.com/images/icons/flags/shiny/32/Cambodia.png",
    "lat": 12.565679,
    "lng": 104.990963,
    "timezone": "Asia/Phnom_Penh"
  },
  {
    "name_en": "Kiribati",
    "flag_url_32": "https://www.thesportsdb.com/images/icons/flags/shiny/32/Kiribati.png",
    "lat": 1.44213,
    "lng": 172.9829763,
    "timezone": "Pacific/Enderbury"
  },
  {
    "name_en": "Comoros",
    "flag_url_32": "https://www.thesportsdb.com/images/icons/flags/shiny/32/Comoros.png",
    "lat": -11.6455,
    "lng": 43.3333,
    "timezone": "Indian/Comoro"
  },
  {
    "name_en": "Saint Kitts and Nevis",
    "flag_url_32": "https://www.thesportsdb.com/images/icons/flags/shiny/32/Saint-Kitts-and-Nevis.png",
    "lat": 17.357822,
    "lng": -62.782998,
    "timezone": "America/St_Kitts"
  },
  {
    "name_en": "North Korea",
    "flag_url_32": "https://www.thesportsdb.com/images/icons/flags/shiny/32/North-Korea.png",
    "lat": 40.339852,
    "lng": 127.510093,
    "timezone": "Asia/Pyongyang"
  },
  {
    "name_en": "South Korea",
    "flag_url_32": "https://www.thesportsdb.com/images/icons/flags/shiny/32/South-Korea.png",
    "lat": 35.907757,
    "lng": 127.766922,
    "timezone": "Asia/Seoul"
  },
  {
    "name_en": "Kuwait",
    "flag_url_32": "https://www.thesportsdb.com/images/icons/flags/shiny/32/Kuwait.png",
    "lat": 29.31166,
    "lng": 47.481766,
    "timezone": "Asia/Kuwait"
  },
  {
    "name_en": "Cayman Islands",
    "flag_url_32": "https://www.thesportsdb.com/images/icons/flags/shiny/32/Cayman-Islands.png",
    "lat": 19.313299999999998,
    "lng": -81.2546,
    "timezone": "America/Cayman"
  },
  {
    "name_en": "Kazakhstan",
    "flag_url_32": "https://www.thesportsdb.com/images/icons/flags/shiny/32/Kazakhstan.png",
    "lat": 48.019573,
    "lng": 66.923684,
    "timezone": "Asia/Almaty"
  },
  {
    "name_en": "Laos",
    "flag_url_32": "https://www.thesportsdb.com/images/icons/flags/shiny/32/Laos.png",
    "lat": 19.85627,
    "lng": 102.49549599999999,
    "timezone": "Asia/Vientiane"
  },
  {
    "name_en": "Lebanon",
    "flag_url_32": "https://www.thesportsdb.com/images/icons/flags/shiny/32/Lebanon.png",
    "lat": 33.854721,
    "lng": 35.862285,
    "timezone": "Asia/Beirut"
  },
  {
    "name_en": "Saint Lucia",
    "flag_url_32": "https://www.thesportsdb.com/images/icons/flags/shiny/32/Saint-Lucia.png",
    "lat": 13.909443999999999,
    "lng": -60.978893,
    "timezone": "America/St_Lucia"
  },
  {
    "name_en": "Liechtenstein",
    "flag_url_32": "https://www.thesportsdb.com/images/icons/flags/shiny/32/Liechtenstein.png",
    "lat": 47.141039199999994,
    "lng": 9.520935,
    "timezone": "Europe/Vaduz"
  },
  {
    "name_en": "Sri Lanka",
    "flag_url_32": "https://www.thesportsdb.com/images/icons/flags/shiny/32/Sri-Lanka.png",
    "lat": 7.873054,
    "lng": 80.77179699999999,
    "timezone": "Asia/Colombo"
  },
  {
    "name_en": "Liberia",
    "flag_url_32": "https://www.thesportsdb.com/images/icons/flags/shiny/32/Liberia.png",
    "lat": 6.428055,
    "lng": -9.429499,
    "timezone": "Africa/Monrovia"
  },
  {
    "name_en": "Lesotho",
    "flag_url_32": "https://www.thesportsdb.com/images/icons/flags/shiny/32/Lesotho.png",
    "lat": -29.609987999999998,
    "lng": 28.233608,
    "timezone": "Africa/Maseru"
  },
  {
    "name_en": "Lithuania",
    "flag_url_32": "https://www.thesportsdb.com/images/icons/flags/shiny/32/Lithuania.png",
    "lat": 55.169438,
    "lng": 23.881275,
    "timezone": "Europe/Vilnius"
  },
  {
    "name_en": "Luxembourg",
    "flag_url_32": "https://www.thesportsdb.com/images/icons/flags/shiny/32/Luxembourg.png",
    "lat": 49.815273,
    "lng": 6.129582999999999,
    "timezone": "Europe/Luxembourg"
  },
  {
    "name_en": "Latvia",
    "flag_url_32": "https://www.thesportsdb.com/images/icons/flags/shiny/32/Latvia.png",
    "lat": 56.879635,
    "lng": 24.603189,
    "timezone": "Europe/Riga"
  },
  {
    "name_en": "Libya",
    "flag_url_32": "https://www.thesportsdb.com/images/icons/flags/shiny/32/Libya.png",
    "lat": 26.335099999999997,
    "lng": 17.228331,
    "timezone": "Africa/Tripoli"
  },
  {
    "name_en": "Morocco",
    "flag_url_32": "https://www.thesportsdb.com/images/icons/flags/shiny/32/Morocco.png",
    "lat": 31.791701999999997,
    "lng": -7.092619999999999,
    "timezone": "Africa/Casablanca"
  },
  {
    "name_en": "Monaco",
    "flag_url_32": "https://www.thesportsdb.com/images/icons/flags/shiny/32/Monaco.png",
    "lat": 43.7384176,
    "lng": 7.4246158,
    "timezone": "Europe/Monaco"
  },
  {
    "name_en": "Moldova",
    "flag_url_32": "https://www.thesportsdb.com/images/icons/flags/shiny/32/Moldova.png",
    "lat": 47.411631,
    "lng": 28.369885,
    "timezone": "Europe/Chisinau"
  },
  {
    "name_en": "Montenegro",
    "flag_url_32": "https://www.thesportsdb.com/images/icons/flags/shiny/32/Montenegro.png",
    "lat": 42.708678,
    "lng": 19.37439,
    "timezone": "Europe/Podgorica"
  },
  {
    "name_en": "Saint-Martin",
    "flag_url_32": "https://www.thesportsdb.com/images/icons/flags/shiny/32/Saint-Martin.png",
    "lat": 18.0708298,
    "lng": -63.0500809,
    "timezone": "America/Curacao"
  },
  {
    "name_en": "Madagascar",
    "flag_url_32": "https://www.thesportsdb.com/images/icons/flags/shiny/32/Madagascar.png",
    "lat": -18.766947,
    "lng": 46.869107,
    "timezone": "Indian/Antananarivo"
  },
  {
    "name_en": "Marshall Islands",
    "flag_url_32": "https://www.thesportsdb.com/images/icons/flags/shiny/32/Marshall-Islands.png",
    "lat": 7.131474,
    "lng": 171.18447799999998,
    "timezone": "Pacific/Majuro"
  },
  {
    "name_en": "Mixed",
    "flag_url_32": "https://www.thesportsdb.com/images/icons/flags/shiny/32/World.png",
    "lat": 32.7430719,
    "lng": -96.963595,
    "timezone": "America/Chicago"
  },
  {
    "name_en": "Macedonia",
    "flag_url_32": "https://www.thesportsdb.com/images/icons/flags/shiny/32/Macedonia.png",
    "lat": 41.608635,
    "lng": 21.745275,
    "timezone": "Europe/Skopje"
  },
  {
    "name_en": "Mali",
    "flag_url_32": "https://www.thesportsdb.com/images/icons/flags/shiny/32/Mali.png",
    "lat": 17.570691999999998,
    "lng": -3.9961659999999997,
    "timezone": "Africa/Bamako"
  },
  {
    "name_en": "Myanmar",
    "flag_url_32": "https://www.thesportsdb.com/images/icons/flags/shiny/32/Myanmar.png",
    "lat": 21.916221,
    "lng": 95.955974,
    "timezone": "Asia/Rangoon"
  },
  {
    "name_en": "Mongolia",
    "flag_url_32": "https://www.thesportsdb.com/images/icons/flags/shiny/32/Mongolia.png",
    "lat": 46.862496,
    "lng": 103.846656,
    "timezone": "Asia/Hovd"
  },
  {
    "name_en": "Macau",
    "flag_url_32": "https://www.thesportsdb.com/images/icons/flags/shiny/32/Macau.png",
    "lat": 22.198745,
    "lng": 113.54387299999999,
    "timezone": "Asia/Macau"
  },
  {
    "name_en": "Northern Mariana Islands",
    "flag_url_32": "https://www.thesportsdb.com/images/icons/flags/shiny/32/Northern-Mariana-Islands.png",
    "lat": 15.0979,
    "lng": 145.6739,
    "timezone": "Pacific/Saipan"
  },
  {
    "name_en": "Martinique",
    "flag_url_32": "https://www.thesportsdb.com/images/icons/flags/shiny/32/Martinique.png",
    "lat": 14.641528,
    "lng": -61.024173999999995,
    "timezone": "America/Martinique"
  },
  {
    "name_en": "Mauritania",
    "flag_url_32": "https://www.thesportsdb.com/images/icons/flags/shiny/32/Mauritania.png",
    "lat": 21.00789,
    "lng": -10.940835,
    "timezone": "Africa/Nouakchott"
  },
  {
    "name_en": "Montserrat",
    "flag_url_32": "https://www.thesportsdb.com/images/icons/flags/shiny/32/Montserrat.png",
    "lat": 16.742497999999998,
    "lng": -62.187366,
    "timezone": "America/Montserrat"
  },
  {
    "name_en": "Malta",
    "flag_url_32": "https://www.thesportsdb.com/images/icons/flags/shiny/32/Malta.png",
    "lat": 35.937495999999996,
    "lng": 14.375416,
    "timezone": "Europe/Malta"
  },
  {
    "name_en": "Mauritius",
    "flag_url_32": "https://www.thesportsdb.com/images/icons/flags/shiny/32/Mauritius.png",
    "lat": -20.348404,
    "lng": 57.552152,
    "timezone": "Indian/Mauritius"
  },
  {
    "name_en": "Maldives",
    "flag_url_32": "https://www.thesportsdb.com/images/icons/flags/shiny/32/Maldives.png",
    "lat": 3.202778,
    "lng": 73.22068,
    "timezone": "Indian/Maldives"
  },
  {
    "name_en": "Malawi",
    "flag_url_32": "https://www.thesportsdb.com/images/icons/flags/shiny/32/Malawi.png",
    "lat": -13.254308,
    "lng": 34.301525,
    "timezone": "Africa/Blantyre"
  },
  {
    "name_en": "Mexico",
    "flag_url_32": "https://www.thesportsdb.com/images/icons/flags/shiny/32/Mexico.png",
    "lat": 23.634501,
    "lng": -102.55278399999999,
    "timezone": "America/Cancun"
  },
  {
    "name_en": "Malaysia",
    "flag_url_32": "https://www.thesportsdb.com/images/icons/flags/shiny/32/Malaysia.png",
    "lat": 4.210484,
    "lng": 101.975766,
    "timezone": "Asia/Kuala_Lumpur"
  },
  {
    "name_en": "Mozambique",
    "flag_url_32": "https://www.thesportsdb.com/images/icons/flags/shiny/32/Mozambique.png",
    "lat": -18.665695,
    "lng": 35.529562,
    "timezone": "Africa/Maputo"
  },
  {
    "name_en": "Northern Ireland",
    "flag_url_32": "https://www.thesportsdb.com/images/icons/flags/shiny/32/Northern-Ireland.png",
    "lat": 54.7877149,
    "lng": -6.4923145,
    "timezone": "Europe/London"
  },
  {
    "name_en": "Namibia",
    "flag_url_32": "https://www.thesportsdb.com/images/icons/flags/shiny/32/Namibia.png",
    "lat": -22.957639999999998,
    "lng": 18.49041,
    "timezone": "Africa/Windhoek"
  },
  {
    "name_en": "New Caledonia",
    "flag_url_32": "https://www.thesportsdb.com/images/icons/flags/shiny/32/New-Caledonia.png",
    "lat": -20.904305,
    "lng": 165.618042,
    "timezone": "Pacific/Noumea"
  },
  {
    "name_en": "Niger",
    "flag_url_32": "https://www.thesportsdb.com/images/icons/flags/shiny/32/Niger.png",
    "lat": 17.607789,
    "lng": 8.081666,
    "timezone": "Africa/Niamey"
  },
  {
    "name_en": "Norfolk Island",
    "flag_url_32": "https://www.thesportsdb.com/images/icons/flags/shiny/32/Norfolk-Island.png",
    "lat": -29.040834999999998,
    "lng": 167.954712,
    "timezone": "Pacific/Norfolk"
  },
  {
    "name_en": "Nigeria",
    "flag_url_32": "https://www.thesportsdb.com/images/icons/flags/shiny/32/Nigeria.png",
    "lat": 9.081999,
    "lng": 8.675277,
    "timezone": "Africa/Lagos"
  },
  {
    "name_en": "Nicaragua",
    "flag_url_32": "https://www.thesportsdb.com/images/icons/flags/shiny/32/Nicaragua.png",
    "lat": 12.865416,
    "lng": -85.207229,
    "timezone": "America/Managua"
  },
  {
    "name_en": "The Netherlands",
    "flag_url_32": "https://www.thesportsdb.com/images/icons/flags/shiny/32/The-Netherlands.png",
    "lat": 52.132633,
    "lng": 5.291265999999999,
    "timezone": "Europe/Amsterdam"
  },
  {
    "name_en": "Norway",
    "flag_url_32": "https://www.thesportsdb.com/images/icons/flags/shiny/32/Norway.png",
    "lat": 60.472024,
    "lng": 8.468945999999999,
    "timezone": "Europe/Oslo"
  },
  {
    "name_en": "Nepal",
    "flag_url_32": "https://www.thesportsdb.com/images/icons/flags/shiny/32/Nepal.png",
    "lat": 28.394857,
    "lng": 84.12400799999999,
    "timezone": "Asia/Katmandu"
  },
  {
    "name_en": "Nauru",
    "flag_url_32": "https://www.thesportsdb.com/images/icons/flags/shiny/32/Nauru.png",
    "lat": -0.522778,
    "lng": 166.931503,
    "timezone": "Pacific/Nauru"
  },
  {
    "name_en": "Niue",
    "flag_url_32": "https://www.thesportsdb.com/images/icons/flags/shiny/32/Niue.png",
    "lat": -19.054444999999998,
    "lng": -169.867233,
    "timezone": "Pacific/Niue"
  },
  {
    "name_en": "New Zealand",
    "flag_url_32": "https://www.thesportsdb.com/images/icons/flags/shiny/32/New-Zealand.png",
    "lat": -40.900557,
    "lng": 174.88597099999998,
    "timezone": "Pacific/Auckland"
  },
  {
    "name_en": "Oman",
    "flag_url_32": "https://www.thesportsdb.com/images/icons/flags/shiny/32/Oman.png",
    "lat": 21.4735329,
    "lng": 55.975412999999996,
    "timezone": "Asia/Muscat"
  },
  {
    "name_en": "Panama",
    "flag_url_32": "https://www.thesportsdb.com/images/icons/flags/shiny/32/Panama.png",
    "lat": 8.537981,
    "lng": -80.782127,
    "timezone": "America/Panama"
  },
  {
    "name_en": "Peru",
    "flag_url_32": "https://www.thesportsdb.com/images/icons/flags/shiny/32/Peru.png",
    "lat": -9.189967,
    "lng": -75.015152,
    "timezone": "America/Lima"
  },
  {
    "name_en": "French Polynesia",
    "flag_url_32": "https://www.thesportsdb.com/images/icons/flags/shiny/32/French-Polynesia.png",
    "lat": -17.679742,
    "lng": -149.40684299999998,
    "timezone": "Pacific/Gambier"
  },
  {
    "name_en": "Papua New Guinea",
    "flag_url_32": "https://www.thesportsdb.com/images/icons/flags/shiny/32/Papua-New-Guinea.png",
    "lat": -6.314992999999999,
    "lng": 143.95555,
    "timezone": "Pacific/Bougainville"
  },
  {
    "name_en": "Philippines",
    "flag_url_32": "https://www.thesportsdb.com/images/icons/flags/shiny/32/Philippines.png",
    "lat": 12.879721,
    "lng": 121.774017,
    "timezone": "Asia/Manila"
  },
  {
    "name_en": "Pakistan",
    "flag_url_32": "https://www.thesportsdb.com/images/icons/flags/shiny/32/Pakistan.png",
    "lat": 30.375321,
    "lng": 69.34511599999999,
    "timezone": "Asia/Karachi"
  },
  {
    "name_en": "Poland",
    "flag_url_32": "https://www.thesportsdb.com/images/icons/flags/shiny/32/Poland.png",
    "lat": 51.919438,
    "lng": 19.145136,
    "timezone": "Europe/Warsaw"
  },
  {
    "name_en": "Pitcairn",
    "flag_url_32": "https://www.thesportsdb.com/images/icons/flags/shiny/32/Pitcairn.png",
    "lat": -24.3767537,
    "lng": -128.3242376,
    "timezone": "Pacific/Pitcairn"
  },
  {
    "name_en": "Puerto Rico",
    "flag_url_32": "https://www.thesportsdb.com/images/icons/flags/shiny/32/Puerto-Rico.png",
    "lat": 18.220833,
    "lng": -66.590149,
    "timezone": "America/Puerto_Rico"
  },
  {
    "name_en": "Palestine",
    "flag_url_32": "https://www.thesportsdb.com/images/icons/flags/shiny/32/Palestine.png",
    "lat": null,
    "lng": null,
    "timezone": "Asia/Hebron"
  },
  {
    "name_en": "Portugal",
    "flag_url_32": "https://www.thesportsdb.com/images/icons/flags/shiny/32/Portugal.png",
    "lat": 39.399871999999995,
    "lng": -8.224454,
    "timezone": "Atlantic/Azores"
  },
  {
    "name_en": "Palau",
    "flag_url_32": "https://www.thesportsdb.com/images/icons/flags/shiny/32/Palau.png",
    "lat": 7.5149799999999995,
    "lng": 134.58252,
    "timezone": "Pacific/Palau"
  },
  {
    "name_en": "Paraguay",
    "flag_url_32": "https://www.thesportsdb.com/images/icons/flags/shiny/32/Paraguay.png",
    "lat": -23.442503,
    "lng": -58.443832,
    "timezone": "America/Asuncion"
  },
  {
    "name_en": "Qatar",
    "flag_url_32": "https://www.thesportsdb.com/images/icons/flags/shiny/32/Qatar.png",
    "lat": 25.354826,
    "lng": 51.183884,
    "timezone": "Asia/Qatar"
  },
  {
    "name_en": "Reunion",
    "flag_url_32": "https://www.thesportsdb.com/images/icons/flags/shiny/32/Reunion.png",
    "lat": 40.716840399999995,
    "lng": -73.9518587,
    "timezone": "America/New_York"
  },
  {
    "name_en": "Romania",
    "flag_url_32": "https://www.thesportsdb.com/images/icons/flags/shiny/32/Romania.png",
    "lat": 45.943160999999996,
    "lng": 24.966759999999997,
    "timezone": "Europe/Bucharest"
  },
  {
    "name_en": "Serbia",
    "flag_url_32": "https://www.thesportsdb.com/images/icons/flags/shiny/32/Serbia.png",
    "lat": 44.016521,
    "lng": 21.005858999999997,
    "timezone": "Europe/Belgrade"
  },
  {
    "name_en": "Russia",
    "flag_url_32": "https://www.thesportsdb.com/images/icons/flags/shiny/32/Russia.png",
    "lat": 61.52401,
    "lng": 105.318756,
    "timezone": "Asia/Anadyr"
  },
  {
    "name_en": "Rwanda",
    "flag_url_32": "https://www.thesportsdb.com/images/icons/flags/shiny/32/Rwanda.png",
    "lat": -1.940278,
    "lng": 29.873887999999997,
    "timezone": "Africa/Kigali"
  },
  {
    "name_en": "Scotland",
    "flag_url_32": "https://www.thesportsdb.com/images/icons/flags/shiny/32/Scotland.png",
    "lat": 56.490671199999994,
    "lng": -4.2026458,
    "timezone": "Europe/London"
  },
  {
    "name_en": "Saudi Arabia",
    "flag_url_32": "https://www.thesportsdb.com/images/icons/flags/shiny/32/Saudi-Arabia.png",
    "lat": 23.885942,
    "lng": 45.079162,
    "timezone": "Asia/Riyadh"
  },
  {
    "name_en": "Solomon Islands",
    "flag_url_32": "https://www.thesportsdb.com/images/icons/flags/shiny/32/Solomon-Islands.png",
    "lat": -9.64571,
    "lng": 160.156194,
    "timezone": "Pacific/Guadalcanal"
  },
  {
    "name_en": "Seychelles",
    "flag_url_32": "https://www.thesportsdb.com/images/icons/flags/shiny/32/Seychelles.png",
    "lat": -4.679574,
    "lng": 55.491977,
    "timezone": "Indian/Mahe"
  },
  {
    "name_en": "Sudan",
    "flag_url_32": "https://www.thesportsdb.com/images/icons/flags/shiny/32/Sudan.png",
    "lat": 12.862807,
    "lng": 30.217636,
    "timezone": "Africa/Khartoum"
  },
  {
    "name_en": "Sweden",
    "flag_url_32": "https://www.thesportsdb.com/images/icons/flags/shiny/32/Sweden.png",
    "lat": 60.128161,
    "lng": 18.643501,
    "timezone": "Europe/Stockholm"
  },
  {
    "name_en": "Singapore",
    "flag_url_32": "https://www.thesportsdb.com/images/icons/flags/shiny/32/Singapore.png",
    "lat": 1.352083,
    "lng": 103.819836,
    "timezone": "Asia/Singapore"
  },
  {
    "name_en": "Saint Helena",
    "flag_url_32": "https://www.thesportsdb.com/images/icons/flags/shiny/32/Saint-Helena.png",
    "lat": -15.965010399999999,
    "lng": -5.7089241,
    "timezone": "Atlantic/St_Helena"
  },
  {
    "name_en": "Slovenia",
    "flag_url_32": "https://www.thesportsdb.com/images/icons/flags/shiny/32/Slovenia.png",
    "lat": 46.151241,
    "lng": 14.995462999999999,
    "timezone": "Europe/Ljubljana"
  },
  {
    "name_en": "Svalbard",
    "flag_url_32": "https://www.thesportsdb.com/images/icons/flags/shiny/32/Svalbard.png",
    "lat": 77.8749725,
    "lng": 20.975182099999998,
    "timezone": "Arctic/Longyearbyen"
  },
  {
    "name_en": "Slovakia",
    "flag_url_32": "https://www.thesportsdb.com/images/icons/flags/shiny/32/Slovakia.png",
    "lat": 48.669025999999995,
    "lng": 19.699023999999998,
    "timezone": "Europe/Bratislava"
  },
  {
    "name_en": "Sierra Leone",
    "flag_url_32": "https://www.thesportsdb.com/images/icons/flags/shiny/32/Sierra-Leone.png",
    "lat": 8.460555,
    "lng": -11.779888999999999,
    "timezone": "Africa/Freetown"
  },
  {
    "name_en": "San Marino",
    "flag_url_32": "https://www.thesportsdb.com/images/icons/flags/shiny/32/San-Marino.png",
    "lat": 43.94236,
    "lng": 12.457777,
    "timezone": "Europe/San_Marino"
  },
  {
    "name_en": "Senegal",
    "flag_url_32": "https://www.thesportsdb.com/images/icons/flags/shiny/32/Senegal.png",
    "lat": 14.497401,
    "lng": -14.452361999999999,
    "timezone": "Africa/Dakar"
  },
  {
    "name_en": "Somalia",
    "flag_url_32": "https://www.thesportsdb.com/images/icons/flags/shiny/32/Somalia.png",
    "lat": 5.152149,
    "lng": 46.199616,
    "timezone": "Africa/Mogadishu"
  },
  {
    "name_en": "Suriname",
    "flag_url_32": "https://www.thesportsdb.com/images/icons/flags/shiny/32/Suriname.png",
    "lat": 3.919305,
    "lng": -56.027783,
    "timezone": "America/Paramaribo"
  },
  {
    "name_en": "South Sudan",
    "flag_url_32": "https://www.thesportsdb.com/images/icons/flags/shiny/32/South-Sudan.png",
    "lat": 6.876991899999999,
    "lng": 31.3069788,
    "timezone": "Africa/Juba"
  },
  {
    "name_en": "Sao Tome and Principe",
    "flag_url_32": "https://www.thesportsdb.com/images/icons/flags/shiny/32/Sao-Tome-and-Principe.png",
    "lat": 0.18636,
    "lng": 6.613080999999999,
    "timezone": "Africa/Sao_Tome"
  },
  {
    "name_en": "El Salvador",
    "flag_url_32": "https://www.thesportsdb.com/images/icons/flags/shiny/32/El-Salvador.png",
    "lat": 13.794184999999999,
    "lng": -88.89653,
    "timezone": "America/El_Salvador"
  },
  {
    "name_en": "Syria",
    "flag_url_32": "https://www.thesportsdb.com/images/icons/flags/shiny/32/Syria.png",
    "lat": 34.802074999999995,
    "lng": 38.996815,
    "timezone": "Asia/Damascus"
  },
  {
    "name_en": "Swaziland",
    "flag_url_32": "https://www.thesportsdb.com/images/icons/flags/shiny/32/Swaziland.png",
    "lat": -26.522503,
    "lng": 31.465866,
    "timezone": "Africa/Mbabane"
  },
  {
    "name_en": "Turks and Caicos Islands",
    "flag_url_32": "https://www.thesportsdb.com/images/icons/flags/shiny/32/Turks-and-Caicos-Islands.png",
    "lat": 21.694025,
    "lng": -71.797928,
    "timezone": "America/Grand_Turk"
  },
  {
    "name_en": "Chad",
    "flag_url_32": "https://www.thesportsdb.com/images/icons/flags/shiny/32/Chad.png",
    "lat": 15.454165999999999,
    "lng": 18.732207,
    "timezone": "Africa/Ndjamena"
  },
  {
    "name_en": "French Southern Territories",
    "flag_url_32": "https://www.thesportsdb.com/images/icons/flags/shiny/32/French-Southern-Territories.png",
    "lat": -49.280366,
    "lng": 69.3485571,
    "timezone": "Indian/Kerguelen"
  },
  {
    "name_en": "Togo",
    "flag_url_32": "https://www.thesportsdb.com/images/icons/flags/shiny/32/Togo.png",
    "lat": 8.619543,
    "lng": 0.824782,
    "timezone": "Africa/Lome"
  },
  {
    "name_en": "Thailand",
    "flag_url_32": "https://www.thesportsdb.com/images/icons/flags/shiny/32/Thailand.png",
    "lat": 15.870032,
    "lng": 100.99254099999999,
    "timezone": "Asia/Bangkok"
  },
  {
    "name_en": "Tajikistan",
    "flag_url_32": "https://www.thesportsdb.com/images/icons/flags/shiny/32/Tajikistan.png",
    "lat": 38.861034,
    "lng": 71.276093,
    "timezone": "Asia/Dushanbe"
  },
  {
    "name_en": "Tokelau",
    "flag_url_32": "https://www.thesportsdb.com/images/icons/flags/shiny/32/Tokelau.png",
    "lat": -9.200199999999999,
    "lng": -171.8484,
    "timezone": "Pacific/Fakaofo"
  },
  {
    "name_en": "East Timor",
    "flag_url_32": "https://www.thesportsdb.com/images/icons/flags/shiny/32/East-Timor.png",
    "lat": -8.874217,
    "lng": 125.727539,
    "timezone": "Asia/Dili"
  },
  {
    "name_en": "Turkmenistan",
    "flag_url_32": "https://www.thesportsdb.com/images/icons/flags/shiny/32/Turkmenistan.png",
    "lat": 38.969719,
    "lng": 59.556278,
    "timezone": "Asia/Ashgabat"
  },
  {
    "name_en": "Tunisia",
    "flag_url_32": "https://www.thesportsdb.com/images/icons/flags/shiny/32/Tunisia.png",
    "lat": 33.886917,
    "lng": 9.537499,
    "timezone": "Africa/Tunis"
  },
  {
    "name_en": "Tonga",
    "flag_url_32": "https://www.thesportsdb.com/images/icons/flags/shiny/32/Tonga.png",
    "lat": -21.178986,
    "lng": -175.198242,
    "timezone": "Pacific/Tongatapu"
  },
  {
    "name_en": "Türkiye",
    "flag_url_32": "https://www.thesportsdb.com/images/icons/flags/shiny/32/Türkiye.png",
    "lat": 38.963744999999996,
    "lng": 35.243322,
    "timezone": "Europe/Istanbul"
  },
  {
    "name_en": "Trinidad and Tobago",
    "flag_url_32": "https://www.thesportsdb.com/images/icons/flags/shiny/32/Trinidad-and-Tobago.png",
    "lat": 10.691803,
    "lng": -61.222502999999996,
    "timezone": "America/Port_of_Spain"
  },
  {
    "name_en": "Tuvalu",
    "flag_url_32": "https://www.thesportsdb.com/images/icons/flags/shiny/32/Tuvalu.png",
    "lat": -7.109534999999999,
    "lng": 177.64933,
    "timezone": "Pacific/Funafuti"
  },
  {
    "name_en": "Taiwan",
    "flag_url_32": "https://www.thesportsdb.com/images/icons/flags/shiny/32/Taiwan.png",
    "lat": 23.69781,
    "lng": 120.960515,
    "timezone": "Asia/Taipei"
  },
  {
    "name_en": "Tanzania",
    "flag_url_32": "https://www.thesportsdb.com/images/icons/flags/shiny/32/Tanzania.png",
    "lat": -6.369028,
    "lng": 34.888822,
    "timezone": "Africa/Dar_es_Salaam"
  },
  {
    "name_en": "Ukraine",
    "flag_url_32": "https://www.thesportsdb.com/images/icons/flags/shiny/32/Ukraine.png",
    "lat": 48.379433,
    "lng": 31.165579899999997,
    "timezone": "Europe/Kiev"
  },
  {
    "name_en": "Uganda",
    "flag_url_32": "https://www.thesportsdb.com/images/icons/flags/shiny/32/Uganda.png",
    "lat": 1.373333,
    "lng": 32.290275,
    "timezone": "Africa/Kampala"
  },
  {
    "name_en": "United States",
    "flag_url_32": "https://www.thesportsdb.com/images/icons/flags/shiny/32/United-States.png",
    "lat": 38.794595199999996,
    "lng": -106.5348379,
    "timezone": "America/Adak"
  },
  {
    "name_en": "Uruguay",
    "flag_url_32": "https://www.thesportsdb.com/images/icons/flags/shiny/32/Uruguay.png",
    "lat": -32.522779,
    "lng": -55.765834999999996,
    "timezone": "America/Montevideo"
  },
  {
    "name_en": "Uzbekistan",
    "flag_url_32": "https://www.thesportsdb.com/images/icons/flags/shiny/32/Uzbekistan.png",
    "lat": 41.377491,
    "lng": 64.585262,
    "timezone": "Asia/Samarkand"
  },
  {
    "name_en": "Vatican",
    "flag_url_32": "https://www.thesportsdb.com/images/icons/flags/shiny/32/Vatican.png",
    "lat": 41.902916,
    "lng": 12.453389,
    "timezone": "Europe/Vatican"
  },
  {
    "name_en": "Saint Vincent and the Grenadines",
    "flag_url_32": "https://www.thesportsdb.com/images/icons/flags/shiny/32/Saint-Vincent-and-the-Grenadines.png",
    "lat": 12.984304999999999,
    "lng": -61.287228,
    "timezone": "America/St_Vincent"
  },
  {
    "name_en": "Venezuela",
    "flag_url_32": "https://www.thesportsdb.com/images/icons/flags/shiny/32/Venezuela.png",
    "lat": 6.42375,
    "lng": -66.58973,
    "timezone": "America/Caracas"
  },
  {
    "name_en": "British Virgin Islands",
    "flag_url_32": "https://www.thesportsdb.com/images/icons/flags/shiny/32/British-Virgin-Islands.png",
    "lat": 18.420695,
    "lng": -64.639968,
    "timezone": "America/Tortola"
  },
  {
    "name_en": "United States Virgin Islands",
    "flag_url_32": "https://www.thesportsdb.com/images/icons/flags/shiny/32/United-States-Virgin-Islands.png",
    "lat": 18.335765,
    "lng": -64.896335,
    "timezone": "America/St_Thomas"
  },
  {
    "name_en": "Vietnam",
    "flag_url_32": "https://www.thesportsdb.com/images/icons/flags/shiny/32/Vietnam.png",
    "lat": 14.058323999999999,
    "lng": 108.277199,
    "timezone": "Asia/Saigon"
  },
  {
    "name_en": "Vanuatu",
    "flag_url_32": "https://www.thesportsdb.com/images/icons/flags/shiny/32/Vanuatu.png",
    "lat": -15.376705999999999,
    "lng": 166.959158,
    "timezone": "Pacific/Efate"
  },
  {
    "name_en": "Worldwide",
    "flag_url_32": "https://www.thesportsdb.com/images/icons/flags/shiny/32/Worldwide.png",
    "lat": 36.0209058,
    "lng": -83.9963318,
    "timezone": "America/New_York"
  },
  {
    "name_en": "Wales",
    "flag_url_32": "https://www.thesportsdb.com/images/icons/flags/shiny/32/Wales.png",
    "lat": 52.1306607,
    "lng": -3.7837117,
    "timezone": "Europe/London"
  },
  {
    "name_en": "Wallis and Futuna Islands",
    "flag_url_32": "https://www.thesportsdb.com/images/icons/flags/shiny/32/Wallis-and-Futuna-Islands.png",
    "lat": -14.2938,
    "lng": -178.1165,
    "timezone": "Pacific/Wallis"
  },
  {
    "name_en": "Samoa",
    "flag_url_32": "https://www.thesportsdb.com/images/icons/flags/shiny/32/Samoa.png",
    "lat": -13.759029,
    "lng": -172.104629,
    "timezone": "Pacific/Apia"
  },
  {
    "name_en": "Kosovo",
    "flag_url_32": "https://www.thesportsdb.com/images/icons/flags/shiny/32/Kosovo.png",
    "lat": 42.602635899999996,
    "lng": 20.902977,
    "timezone": "Europe/Belgrade"
  },
  {
    "name_en": "Yemen",
    "flag_url_32": "https://www.thesportsdb.com/images/icons/flags/shiny/32/Yemen.png",
    "lat": 15.552726999999999,
    "lng": 48.516388,
    "timezone": "Asia/Aden"
  },
  {
    "name_en": "Mayotte",
    "flag_url_32": "https://www.thesportsdb.com/images/icons/flags/shiny/32/Mayotte.png",
    "lat": -12.827499999999999,
    "lng": 45.166244,
    "timezone": "Indian/Mayotte"
  },
  {
    "name_en": "South Africa",
    "flag_url_32": "https://www.thesportsdb.com/images/icons/flags/shiny/32/South-Africa.png",
    "lat": -30.559482,
    "lng": 22.937506,
    "timezone": "Africa/Johannesburg"
  },
  {
    "name_en": "Zambia",
    "flag_url_32": "https://www.thesportsdb.com/images/icons/flags/shiny/32/Zambia.png",
    "lat": -13.133897,
    "lng": 27.849332,
    "timezone": "Africa/Lusaka"
  },
  {
    "name_en": "Zimbabwe",
    "flag_url_32": "https://www.thesportsdb.com/images/icons/flags/shiny/32/Zimbabwe.png",
    "lat": -19.015438,
    "lng": 29.154857,
    "timezone": "Africa/Harare"
  }
]